{
  "version": 0.6,
  "generator": "Overpass API 0.7.62.8 e802775f",
  "osm3s": {
    "timestamp_osm_base": "2026-01-15T15:55:50Z",
    "copyright": "The data included in this document is from www.openstreetmap.org. The data is made available under ODbL."
  },
  "elements": [
    {
      "type": "node",
      "id": 209135160,
      "lat": 41.3840055,
      "lon": 2.1754247,
      "tags": {
        "historic": "city_gate",
        "name": "Portal del Bisbe",
        "name:ca": "Portal del Bisbe",
        "wikidata": "Q11942461",
        "wikimedia_commons": "Category:Portal del Bisbe (Barcelona)",
        "wikipedia": "ca:Portal del Bisbe"
      }
    },
    {
      "type": "node",
      "id": 312888956,
      "lat": 41.3863896,
      "lon": 2.1867952,
      "tags": {
        "artist_name": "Lluís Puiggener",
        "artwork_type": "statue",
        "historic": "memorial",
        "memorial": "statue",
        "name": "Barcelona a Prim",
        "name:ca": "Barcelona a Prim",
        "note": "Tot i que l’estatua del general, obra de Lluís Puiggener, fou enderrocada durant la Guerra Civil, avui està al seu emplaçament original. A la base hi trobem dos relleus amb dues escenes militars de la vida de Prim.",
        "statue": "equestrian",
        "tourism": "artwork",
        "website": "http://paradoxesdelavida.blogspot.com.es/2014/03/iv-prim-lexposicio-universal-de-1888bcn.html",
        "wikidata": "Q18156161",
        "wikimedia_commons": "Category:Monument al General Prim (Parc de la Ciutadella)",
        "wikipedia": "ca:Barcelona a Prim"
      }
    },
    {
      "type": "node",
      "id": 438426043,
      "lat": 41.3820329,
      "lon": 2.177009,
      "tags": {
        "historic": "monument",
        "name": "Homenatge als castellers",
        "name:ca": "Homenatge als castellers",
        "wikidata": "Q11926010",
        "wikimedia_commons": "Category:Homenatge als castellers",
        "wikipedia": "ca:Homenatge als castellers"
      }
    },
    {
      "type": "node",
      "id": 506236262,
      "lat": 41.3889468,
      "lon": 2.1938265,
      "tags": {
        "historic": "monument",
        "name": "El Cul. A Santiago Roldan"
      }
    },
    {
      "type": "node",
      "id": 600530571,
      "lat": 41.4485396,
      "lon": 2.2488028,
      "tags": {
        "addr:city": "Badalona",
        "addr:full": "Carrer de Mar, 76",
        "addr:housenumber": "76",
        "addr:postcode": "08911",
        "addr:street": "Carrer de Mar",
        "alt_name": "Farmàcia Sara M. Torras Surroca",
        "amenity": "pharmacy",
        "contact:email": "info@farmaciatorrasbadalona.com",
        "contact:phone": "+34933845614",
        "dispensing": "yes",
        "heritage": "4",
        "heritage:operator": "Generalitat de Catalunya",
        "historic": "heritage",
        "name": "Farmàcia Hereus Torras Surroca",
        "name:ca": "Farmàcia Hereus Torras Surroca",
        "ref": "3622093",
        "ref:ipac": "20500",
        "source": "Generalitat de Catalunya",
        "source:date": "03/11/2020 07:58:41 AM +0000",
        "start_date": "1878",
        "tourism": "attraction",
        "website": "https://www.farmaciatorrasbadalona.com/",
        "wikidata": "Q11921593",
        "wikimedia_commons": "Category:Farmàcia Surroca",
        "wikipedia": "ca:Farmàcia Surroca"
      }
    },
    {
      "type": "node",
      "id": 662868746,
      "lat": 41.4182192,
      "lon": 2.145737,
      "tags": {
        "architect": "Chillida",
        "historic": "monument",
        "name": "Elogi de l'aigua",
        "name:ca": "Elogi de l'aigua",
        "wikidata": "Q11918904",
        "wikimedia_commons": "Category:Elogio del agua (Eduardo Chillida sculpture)",
        "wikipedia": "ca:Elogi de l'aigua"
      }
    },
    {
      "type": "node",
      "id": 671914513,
      "lat": 41.3815258,
      "lon": 2.1726713,
      "tags": {
        "addr:housenumber": "546",
        "addr:postcode": "08011",
        "addr:street": "Gran Via de les Corts Catalanes",
        "name": "Pastelería Escribá Rambla De Les Flors",
        "name:ru": "кондитерская Escriba",
        "opening_hours": "Mo-Su 09:00-22:00",
        "payment:credit_cards": "yes",
        "payment:debit_cards": "yes",
        "phone": "+34 934547535",
        "shop": "confectionery",
        "tourism": "attraction",
        "website": "http://escriba.es/es/#_=_",
        "wheelchair": "no"
      }
    },
    {
      "type": "node",
      "id": 707144024,
      "lat": 41.3593529,
      "lon": 2.0615247,
      "tags": {
        "historic": "yes",
        "man_made": "chimney",
        "material": "brick"
      }
    },
    {
      "type": "node",
      "id": 903753478,
      "lat": 41.4391363,
      "lon": 2.225117,
      "tags": {
        "historic": "memorial",
        "memorial": "bust",
        "name": "Salvador Allende"
      }
    },
    {
      "type": "node",
      "id": 903753479,
      "lat": 41.4418795,
      "lon": 2.2236573,
      "tags": {
        "artist_name": "Silvio Pérez",
        "artwork_type": "sculpture",
        "historic": "memorial",
        "memorial": "sculpture",
        "name": "Ernesto 'Che' Guevara",
        "start_date": "2007",
        "tourism": "artwork"
      }
    },
    {
      "type": "node",
      "id": 1274366610,
      "lat": 41.4667711,
      "lon": 2.2223665,
      "tags": {
        "historic": "wayside_cross"
      }
    },
    {
      "type": "node",
      "id": 1295287972,
      "lat": 41.4559021,
      "lon": 2.2097647,
      "tags": {
        "historic": "memorial",
        "memorial": "plaque",
        "name": "Jardins d'Ernest Lluch - Cementiri Vell"
      }
    },
    {
      "type": "node",
      "id": 1445665638,
      "lat": 41.3854835,
      "lon": 2.1297131,
      "tags": {
        "description": "Estàtua d'un pagès de bronze de 1,90m i 300Kg, una reproducció de Nicolás Ortiz y Sierra d'una estatua de ceramica de 180Kg i autor desconegut.",
        "historic": "monument",
        "name": "Pau Farinetes (Pau Piera)",
        "panoramax": "8348e1ac-d731-4b3b-b493-630f612e8832",
        "source": "survey",
        "source:date": "20110917"
      }
    },
    {
      "type": "node",
      "id": 1479115393,
      "lat": 41.3877835,
      "lon": 2.1170052,
      "tags": {
        "architect": "Antoni Gaudi",
        "disused:amenity": "drinking_water",
        "fee": "no",
        "historic": "monument",
        "name": "Font d'Hèrcules",
        "name:ca": "Font d'Hèrcules",
        "operator": "Ajuntament de Barcelona",
        "operator:wikidata": "Q3129773",
        "ref": "04-072",
        "start_date": "1884",
        "wikidata": "Q18115979",
        "wikimedia_commons": "Category:Font d'Hèrcules (Palau de Pedralbes)",
        "wikipedia": "ca:Font d'Hèrcules (Gaudí)"
      }
    },
    {
      "type": "node",
      "id": 1483868484,
      "lat": 41.3874448,
      "lon": 2.1225799,
      "tags": {
        "historic": "monument",
        "name": "Monument a Pius XII"
      }
    },
    {
      "type": "node",
      "id": 1483892443,
      "lat": 41.3859678,
      "lon": 2.1223628,
      "tags": {
        "historic": "monument",
        "name": "Porta de Gaudí"
      }
    },
    {
      "type": "node",
      "id": 1488980172,
      "lat": 41.3631803,
      "lon": 2.1673406,
      "tags": {
        "historic": "memorial",
        "memorial": "sculpture",
        "name": "A Gaspar de Portolà",
        "panoramax": "5db46933-c1bd-49e3-a051-ed7e4fbbd270"
      }
    },
    {
      "type": "node",
      "id": 1787585123,
      "lat": 41.3802746,
      "lon": 2.0678135,
      "tags": {
        "name": "Walden 7",
        "name:ca": "Walden 7",
        "place": "city_block",
        "tourism": "attraction",
        "wikidata": "Q3043523",
        "wikimedia_commons": "Category:Walden 7",
        "wikipedia": "ca:Walden 7"
      }
    },
    {
      "type": "node",
      "id": 1845922386,
      "lat": 41.3540003,
      "lon": 2.1501311,
      "tags": {
        "buried:wikidata": "Q208815",
        "buried:wikipedia": "ca:Buenaventura Durruti",
        "historic": "tomb",
        "name": "Memorial Durruti, Ascaso, Ferrer i Guardia",
        "name:ca": "Memorial Durruti, Ascaso, Ferrer i Guardia",
        "wikidata": "Q114029846",
        "wikimedia_commons": "Category:Grave of Buenaventura Durruti"
      }
    },
    {
      "type": "node",
      "id": 1934456473,
      "lat": 41.4014601,
      "lon": 2.2048344,
      "tags": {
        "historic": "yes",
        "man_made": "chimney",
        "material": "brick",
        "name": "Xemeneia de Can Saladrigas",
        "name:ca": "Xemeneia de Can Saladrigas"
      }
    },
    {
      "type": "node",
      "id": 2085035190,
      "lat": 41.3923502,
      "lon": 2.1913167,
      "tags": {
        "historic": "yes",
        "man_made": "chimney",
        "material": "brick"
      }
    },
    {
      "type": "node",
      "id": 2085035210,
      "lat": 41.3877244,
      "lon": 2.1947843,
      "tags": {
        "date": "1898",
        "historic": "yes",
        "man_made": "chimney",
        "material": "brick",
        "name": "Xemeneia de Can Folch",
        "wikidata": "Q11911621",
        "wikimedia_commons": "Category:Can Folch",
        "wikipedia": "ca:Can Folch"
      }
    },
    {
      "type": "node",
      "id": 2115076977,
      "lat": 41.4525049,
      "lon": 2.2467065,
      "tags": {
        "alt_name": "Palau dels Marquesos de Barberà",
        "alt_name:ca": "Palau dels Marquesos de Barberà",
        "historic": "monument",
        "name": "Torre Vella",
        "name:ca": "Torre Vella",
        "wikidata": "Q18008530",
        "wikimedia_commons": "Category:La Torre Vella, Badalona",
        "wikipedia": "ca:Torre Vella (Badalona)"
      }
    },
    {
      "type": "node",
      "id": 2116524274,
      "lat": 41.4647451,
      "lon": 2.2311081,
      "tags": {
        "addr:city": "Badalona",
        "architect": "Joan Amigó i Barriga",
        "denomination": "catholic",
        "height": "4",
        "historic": "wayside_cross",
        "material": "concrete",
        "name": "Creu de Montigalà",
        "name:ca": "Creu de Montigalà",
        "religion": "christian",
        "start_date": "1913",
        "wikidata": "Q19290229",
        "wikimedia_commons": "Category:Creu de Montigalà",
        "wikipedia": "ca:Creu de Montigalà"
      }
    },
    {
      "type": "node",
      "id": 2129428029,
      "lat": 41.4524836,
      "lon": 2.2475448,
      "tags": {
        "historic": "archaeological_site",
        "name": "Baetulo",
        "name:ca": "Baetulo",
        "wikidata": "Q8239659",
        "wikimedia_commons": "Category:Baetulo",
        "wikipedia": "ca:Baetulo"
      }
    },
    {
      "type": "node",
      "id": 2129428054,
      "lat": 41.4524547,
      "lon": 2.2480985,
      "tags": {
        "historic": "archaeological_site",
        "name": "Jardi de Quint Licini",
        "wikidata": "Q105504988",
        "wikipedia": "ca:Jardí de Quint Licini"
      }
    },
    {
      "type": "node",
      "id": 2193095282,
      "lat": 41.4032812,
      "lon": 2.1983493,
      "tags": {
        "historic": "memorial",
        "inscription": "Dr. Josep Trueta Raspall. 1897-1977",
        "memorial": "statue",
        "name": "Dr. Josep Trueta Raspall",
        "panoramax": "2890f983-be20-4905-98dc-dcc925f180b5",
        "panoramax:0": "dcad4122-792c-4bc3-af89-9effa87f3fec"
      }
    },
    {
      "type": "node",
      "id": 2212585957,
      "lat": 41.4279764,
      "lon": 2.2274839,
      "tags": {
        "building": "industrial",
        "building:colour": "#947350",
        "building:material": "brick",
        "height": "40",
        "heritage": "8",
        "heritage:operator": "Ajuntament de Sant Adrià de Besòs",
        "heritage:ref": "bcil",
        "heritage:website": "https://patrimonicultural.diba.cat/element/xemeneia-de-lantiga-fabrica-celo",
        "historic": "monument",
        "man_made": "chimney",
        "name": "Xemeneia de l'antiga fàbrica C.E.L.O.",
        "name:ca": "Xemeneia de l'antiga fàbrica C.E.L.O.",
        "name:en": "Chimney of C.E.L.O. factory",
        "protection_title": "Bé Cultural d'Interès Local (BCIL)",
        "protection_title:category": "Element arquitectònic",
        "ref:bcil": "945-I",
        "ref:bcil:protection_date": "2003-01-23",
        "ref:bcil:website": "http://invarquit.cultura.gencat.cat/Cerca/Fitxa?index=0&consulta=&codi=28675",
        "ref:ipac": "28675",
        "start_date": "1951",
        "website": "http://trcelo.blogspot.com.es/",
        "wikidata": "Q47188722",
        "wikimedia_commons": "Category:Chimney of C.E.L.O. factory",
        "wikipedia": "ca:Xemeneia de l'antiga fàbrica CELO"
      }
    },
    {
      "type": "node",
      "id": 2269130820,
      "lat": 41.3948867,
      "lon": 2.1755625,
      "tags": {
        "alt_name": "Monument al Doctor Robert",
        "artist_name": "Josep Llimona",
        "artwork_type": "statue",
        "end_date": "1010-11-13",
        "height": "12.6",
        "historic": "monument",
        "length": "11.25",
        "material": "metal",
        "name": "Monument a Bartomeu Robert",
        "name:ca": "Monument a Bartomeu Robert",
        "start_date": "1904-01-31",
        "tourism": "artwork",
        "width": "9.26",
        "wikidata": "Q15726782",
        "wikimedia_commons": "Category:Monument al Doctor Robert",
        "wikipedia": "ca:Monument al Doctor Robert"
      }
    },
    {
      "type": "node",
      "id": 2305380170,
      "lat": 41.4202203,
      "lon": 2.084831,
      "tags": {
        "historic": "ruins",
        "name": "Pou de Mas Guimbau"
      }
    },
    {
      "type": "node",
      "id": 2305380171,
      "lat": 41.426867,
      "lon": 2.088371,
      "tags": {
        "historic": "ruins",
        "name": "Antiga bassa d'aigua",
        "name:ca": "Antiga bassa d'aigua"
      }
    },
    {
      "type": "node",
      "id": 2332014376,
      "lat": 41.400844,
      "lon": 2.1226853,
      "tags": {
        "historic": "monument",
        "name": "Porta de Sarrià"
      }
    },
    {
      "type": "node",
      "id": 2332022628,
      "lat": 41.3946792,
      "lon": 2.1130153,
      "tags": {
        "historic": "monument",
        "name": "Creu de Pedralbes",
        "name:ca": "Creu de Pedralbes",
        "wikidata": "Q99438878",
        "wikimedia_commons": "Category:Creu de Pedralbes",
        "wikipedia": "ca:Creu de Pedralbes"
      }
    },
    {
      "type": "node",
      "id": 2332026495,
      "lat": 41.3923108,
      "lon": 2.1303671,
      "tags": {
        "historic": "monument",
        "name": "Monument a Prat de la Riba"
      }
    },
    {
      "type": "node",
      "id": 2332032757,
      "lat": 41.3913128,
      "lon": 2.1294391,
      "tags": {
        "historic": "monument",
        "name": "Generaciones",
        "tourism": "artwork",
        "wikidata": "Q99439012",
        "wikimedia_commons": "Category:Generaciones (Pedro Barro)"
      }
    },
    {
      "type": "node",
      "id": 2340678467,
      "lat": 41.4673877,
      "lon": 2.1005414,
      "tags": {
        "check_date": "2024-08-06",
        "denotation": "natural_monument",
        "leaf_cycle": "evergreen",
        "leaf_type": "needleleaved",
        "name": "Pi d'en Xandri",
        "name:ca": "Pi d'en Xandri",
        "natural": "tree",
        "panoramax": "4767f963-f306-4022-b3c1-aa2be5a49b7c",
        "protected": "yes",
        "species": "Pinus pinea",
        "survey:date": "2023-11-12",
        "tourism": "attraction",
        "wikidata": "Q18005594",
        "wikimedia_commons": "Category:Pi d'en Xandri",
        "wikipedia": "ca:Pi d'en Xandri"
      }
    },
    {
      "type": "node",
      "id": 2343794967,
      "lat": 41.4192405,
      "lon": 2.16139,
      "tags": {
        "historic": "archaeological_site",
        "name": "Runes de cases autoconstruïdes dels anys 50",
        "wheelchair": "no"
      }
    },
    {
      "type": "node",
      "id": 2348076269,
      "lat": 41.3540164,
      "lon": 2.1558561,
      "tags": {
        "historic": "tomb",
        "name": "Francesc Cambó"
      }
    },
    {
      "type": "node",
      "id": 2348076270,
      "lat": 41.3542946,
      "lon": 2.1555609,
      "tags": {
        "historic": "tomb",
        "name": "Ildefons Cerdà",
        "name:ca": "Ildefons Cerdà"
      }
    },
    {
      "type": "node",
      "id": 2348076271,
      "lat": 41.3542011,
      "lon": 2.1556654,
      "tags": {
        "historic": "tomb",
        "name": "Joaquim Viola"
      }
    },
    {
      "type": "node",
      "id": 2348076274,
      "lat": 41.3542184,
      "lon": 2.1565574,
      "tags": {
        "historic": "tomb",
        "name": "Josep Maria Porcioles"
      }
    },
    {
      "type": "node",
      "id": 2348076277,
      "lat": 41.3540372,
      "lon": 2.1555809,
      "tags": {
        "historic": "tomb",
        "name": "Rafael Campalans"
      }
    },
    {
      "type": "node",
      "id": 2348235935,
      "lat": 41.3557298,
      "lon": 2.1550072,
      "tags": {
        "historic": "tomb",
        "name": "Joan Miró",
        "source": "https://cementiris.ajuntament.barcelona.cat/memories/joan-miro-ferra",
        "wikimedia_commons": "File:176 Panteó Miró Adzerias, on és enterrat Joan Miró.jpg"
      }
    },
    {
      "type": "node",
      "id": 2348235936,
      "lat": 41.3555902,
      "lon": 2.154968,
      "tags": {
        "historic": "tomb",
        "name": "Xesco Boix"
      }
    },
    {
      "type": "node",
      "id": 2348259056,
      "lat": 41.3537761,
      "lon": 2.1532626,
      "tags": {
        "historic": "tomb",
        "name": "Bartomeu Robert",
        "name:ca": "Bartomeu Robert"
      }
    },
    {
      "type": "node",
      "id": 2348259059,
      "lat": 41.3558544,
      "lon": 2.1546998,
      "tags": {
        "historic": "tomb",
        "name": "Francesc Macià",
        "name:ca": "Francesc Macià",
        "source": "https://cementiris.ajuntament.barcelona.cat/memories/francesc-macia-i-llussa",
        "wikimedia_commons": "Category:Tomb of Francesc Macià"
      }
    },
    {
      "type": "node",
      "id": 2348259062,
      "lat": 41.3551391,
      "lon": 2.1534163,
      "tags": {
        "historic": "tomb",
        "name": "Joan Pich i Pon"
      }
    },
    {
      "type": "node",
      "id": 2348259065,
      "lat": 41.3536238,
      "lon": 2.1543037,
      "tags": {
        "historic": "tomb",
        "name": "Josep Clarà",
        "wikidata": "Q116036072",
        "wikimedia_commons": "Category:Tomba de Josep Clarà"
      }
    },
    {
      "type": "node",
      "id": 2348259068,
      "lat": 41.3538941,
      "lon": 2.1535275,
      "tags": {
        "buried:wikidata": "Q2427046",
        "historic": "tomb",
        "name": "Pascual Madoz"
      }
    },
    {
      "type": "node",
      "id": 2352730101,
      "lat": 41.4562837,
      "lon": 2.1145233,
      "tags": {
        "check_date": "2024-08-06",
        "historic": "archaeological_site",
        "name": "Forn ibèric",
        "name:ca": "Forn ibèric",
        "wikidata": "Q11922616",
        "wikimedia_commons": "Category:Forn Ibèric de Sant Cugat del Vallès",
        "wikipedia": "ca:Forn Ibèric de Sant Cugat del Vallès"
      }
    },
    {
      "type": "node",
      "id": 2442785473,
      "lat": 41.4524719,
      "lon": 2.2487264,
      "tags": {
        "historic": "memorial",
        "name": "Memorial a Pompeu Fabra"
      }
    },
    {
      "type": "node",
      "id": 2442785499,
      "lat": 41.4543541,
      "lon": 2.2487374,
      "tags": {
        "historic": "memorial",
        "name": "Monument a Evarist Arnús i de Ferrer"
      }
    },
    {
      "type": "node",
      "id": 2456223233,
      "lat": 41.3833749,
      "lon": 2.1772306,
      "tags": {
        "addr:housenumber": "10",
        "addr:postcode": "08002",
        "addr:street": "Carrer del Paradís",
        "fee": "no",
        "historic": "archaeological_site;ruins",
        "name": "Temple d'August",
        "name:ca": "Temple d'August",
        "name:de": "Augustus-Tempel",
        "name:es": "Templo de Augusto",
        "name:fr": "Temple d'augyst",
        "name:it": "Corte antica",
        "name:ru": "Римские колонны 1в. н.э.",
        "name:zh": "奧古斯都神廟",
        "operator": "MUHBA",
        "tourism": "attraction",
        "wheelchair": "limited",
        "wikidata": "Q3819019",
        "wikimedia_commons": "Category:Temple of Augustus (Barcelona)",
        "wikipedia": "ca:Temple d'August de Barcelona"
      }
    },
    {
      "type": "node",
      "id": 2491297023,
      "lat": 41.3875079,
      "lon": 2.148702,
      "tags": {
        "description": "Es va construir a la dècada de 1870, pel mestre d’obres valencià Rafael Guastavino. Es tracta d’una de les xemeneies més altes de Catalunya i s’hi van fer servir més de 244.000 maons de 29,5 x 14,5 x 6 cm.",
        "height": "60",
        "historic": "yes",
        "man_made": "chimney",
        "material": "brick",
        "name": "Xemeneia",
        "operator": "Diputació de Barcelona",
        "start_date": "1870",
        "website": "https://www.diba.cat/web/recintes/xemeneia"
      }
    },
    {
      "type": "node",
      "id": 2524480042,
      "lat": 41.3679677,
      "lon": 2.1686962,
      "tags": {
        "historic": "monument",
        "name": "Monument a la sardana",
        "name:ca": "Monument a la sardana",
        "name:es": "Monumento a la Sardana",
        "panoramax": "84a536fa-3e7d-41b5-a5c6-91cb609e7bdf",
        "wikidata": "Q99455699",
        "wikimedia_commons": "Category:Monument a la Sardana (Montjuïc)",
        "wikipedia": "ca:Monument a la Sardana (Barcelona)"
      }
    },
    {
      "type": "node",
      "id": 2532357885,
      "lat": 41.3844458,
      "lon": 2.1777599,
      "tags": {
        "artist_name": "Josep Llimona i Bruguera",
        "artwork_type": "sculpture",
        "historic": "memorial",
        "memorial": "statue",
        "name": "Ramon Berenguer III el Gran",
        "name:ca": "Ramon Berenguer III el Gran",
        "name:es": "Ramon Berengver III",
        "name:ko": "라몬 베렝게르 광장",
        "panoramax": "d1195089-228d-4ea2-abe4-38d504da43f1",
        "subject:wikidata": "Q367001",
        "tourism": "artwork"
      }
    },
    {
      "type": "node",
      "id": 2543021398,
      "lat": 41.3835761,
      "lon": 2.1757849,
      "tags": {
        "historic": "memorial",
        "memorial": "war_memorial",
        "name": "Monument als Herois de 1809",
        "name:ca": "Monument als Herois del 1809",
        "wikidata": "Q11937554",
        "wikimedia_commons": "Category:Monument als Herois del 1809",
        "wikipedia": "ca:Monument als Herois del 1809"
      }
    },
    {
      "type": "node",
      "id": 2618936595,
      "lat": 41.3837445,
      "lon": 2.1749385,
      "tags": {
        "historic": "citywalls"
      }
    },
    {
      "type": "node",
      "id": 2747584450,
      "lat": 41.4417148,
      "lon": 2.2240312,
      "tags": {
        "historic": "yes",
        "man_made": "chimney",
        "material": "brick"
      }
    },
    {
      "type": "node",
      "id": 2764476476,
      "lat": 41.3880455,
      "lon": 2.1662545,
      "tags": {
        "historic": "memorial",
        "memorial": "sculpture",
        "name": "A les víctimes dels bombardeigs de 1938"
      }
    },
    {
      "type": "node",
      "id": 2775765412,
      "lat": 41.4116455,
      "lon": 2.1944788,
      "tags": {
        "building:material": "brick",
        "disused": "yes",
        "height": "15",
        "historic": "yes",
        "man_made": "chimney"
      }
    },
    {
      "type": "node",
      "id": 2785706014,
      "lat": 41.3828109,
      "lon": 2.183495,
      "tags": {
        "historic": "memorial",
        "memorial": "statue",
        "name": "Font del Geni català",
        "name:ca": "Font del Geni català",
        "wikidata": "Q11922474",
        "wikimedia_commons": "Category:Font del Geni Català",
        "wikipedia": "ca:Font del Geni Català"
      }
    },
    {
      "type": "node",
      "id": 2785706050,
      "lat": 41.3886726,
      "lon": 2.1672797,
      "tags": {
        "artwork_type": "statue",
        "historic": "memorial",
        "memorial": "statue",
        "name": "A Joan Güell i Ferrer",
        "name:ca": "A Joan Güell i Ferrer",
        "tourism": "artwork",
        "wikidata": "Q16089609",
        "wikimedia_commons": "Category:Monument a Güell i Ferrer",
        "wikipedia": "ca:A Joan Güell i Ferrer"
      }
    },
    {
      "type": "node",
      "id": 2862614076,
      "lat": 41.3861476,
      "lon": 2.1862733,
      "tags": {
        "historic": "memorial",
        "inscription": "En memòria dels gais, les lesbianes i les persones transsexuals que han patit persecució i repressió al llarg de la història. Barcelona 2011.",
        "lgbtq": "primary",
        "name": "Triangle rosa",
        "note": "Monument contra la LGTBfòbia",
        "wikidata": "Q9035018",
        "wikimedia_commons": "Category:Monument als gais, lesbianes i transsexuals represaliats",
        "wikipedia": "es:Monumento en memoria de los gais, lesbianas y personas transexuales represaliadas"
      }
    },
    {
      "type": "node",
      "id": 2907109775,
      "lat": 41.32942,
      "lon": 2.1082489,
      "tags": {
        "check_date": "2024-08-23",
        "height": "30",
        "historic": "yes",
        "man_made": "chimney",
        "name": "Xemeneia de la paperera",
        "name:ca": "Xemeneia de la paperera",
        "operator": "Torras Hostench",
        "wikidata": "Q98557016"
      }
    },
    {
      "type": "node",
      "id": 2946262527,
      "lat": 41.4423905,
      "lon": 2.2278013,
      "tags": {
        "heritage": "8",
        "historic": "yes",
        "name": "Escorxador Municipal de Badalona",
        "name:ca": "Escorxador municipal de Badalona",
        "start_date": "1927",
        "wikidata": "Q17601995",
        "wikimedia_commons": "Category:Antic escorxador municipal de Badalona",
        "wikipedia": "ca:Escorxador municipal de Badalona"
      }
    },
    {
      "type": "node",
      "id": 2953056617,
      "lat": 41.4159893,
      "lon": 2.1028059,
      "tags": {
        "drinking_water": "no",
        "historic": "monument",
        "name": "Font de Sant Ramon",
        "name:ca": "Font de Sant Ramon",
        "wikidata": "Q17604508",
        "wikipedia": "ca:Font de Sant Ramon"
      }
    },
    {
      "type": "node",
      "id": 2975440408,
      "lat": 41.3276867,
      "lon": 2.1026757,
      "tags": {
        "historic": "memorial",
        "memorial": "sculpture",
        "name": "Do del cel"
      }
    },
    {
      "type": "node",
      "id": 2977398029,
      "lat": 41.3234792,
      "lon": 2.1054279,
      "tags": {
        "historic": "memorial",
        "name": "Al·legoria a Lluís Companys",
        "name:ca": "Al·legoria a Lluís Companys"
      }
    },
    {
      "type": "node",
      "id": 2977480683,
      "lat": 41.3227844,
      "lon": 2.0937651,
      "tags": {
        "historic": "memorial",
        "memorial": "sculpture",
        "name": "L'Arc de l'Esperança"
      }
    },
    {
      "type": "node",
      "id": 2977484529,
      "lat": 41.3220001,
      "lon": 2.0942806,
      "tags": {
        "name": "Torre d'Aigües",
        "name:ca": "Torre d'Aigües",
        "tourism": "attraction"
      }
    },
    {
      "type": "node",
      "id": 2979442627,
      "lat": 41.3276725,
      "lon": 2.0996497,
      "tags": {
        "historic": "memorial",
        "name": "Mini Maxi Tors"
      }
    },
    {
      "type": "node",
      "id": 2979442628,
      "lat": 41.3203575,
      "lon": 2.0880231,
      "tags": {
        "historic": "memorial",
        "name": "Forma In Movimento"
      }
    },
    {
      "type": "node",
      "id": 2979507087,
      "lat": 41.3249272,
      "lon": 2.0925478,
      "tags": {
        "historic": "memorial",
        "name": "Moebius"
      }
    },
    {
      "type": "node",
      "id": 2979553197,
      "lat": 41.3267406,
      "lon": 2.1003992,
      "tags": {
        "historic": "memorial",
        "memorial": "statue",
        "name": "Camí de la fàbrica",
        "name:ca": "Camí de la fàbrica"
      }
    },
    {
      "type": "node",
      "id": 2979593024,
      "lat": 41.3262376,
      "lon": 2.0960583,
      "tags": {
        "historic": "wayside_shrine",
        "name": "Imatge de la Verge de Montserrat",
        "name:ca": "Imatge de la Verge de Montserrat"
      }
    },
    {
      "type": "node",
      "id": 2981200289,
      "lat": 41.3225932,
      "lon": 2.0844704,
      "tags": {
        "historic": "memorial",
        "name": "La cata del Prat"
      }
    },
    {
      "type": "node",
      "id": 2984338264,
      "lat": 41.3183228,
      "lon": 2.0924573,
      "tags": {
        "historic": "memorial",
        "name": "Font de la granja",
        "name:ca": "Font de la granja"
      }
    },
    {
      "type": "node",
      "id": 2984338265,
      "lat": 41.3262765,
      "lon": 2.1026712,
      "tags": {
        "historic": "memorial",
        "name": "Poble i Ciutat",
        "name:ca": "Poble i Ciutat"
      }
    },
    {
      "type": "node",
      "id": 2984338267,
      "lat": 41.3175656,
      "lon": 2.0860468,
      "tags": {
        "historic": "memorial",
        "memorial": "sculpture",
        "name": "Drac",
        "panoramax": "11ad4ca3-8890-4afd-a459-e7f3bf3e1f12"
      }
    }
  ],
  "_cached_at": 1768492686.5976758
}